[{"type":"Feature","properties":{"ons_label":"00AF","name":"Bromley","partic_per":21.7,"pop_2001":295535},"geometry":{"type":"Point","coordinates":[0.02893863316785011,51.376507128584436]},"id":0},{"type":"Feature","properties":{"ons_label":"00BD","name":"Richmond upon Thames","partic_per":26.6,"pop_2001":172330},"geometry":{"type":"Point","coordinates":[-0.31004790109804065,51.442278982625254]},"id":1},{"type":"Feature","properties":{"ons_label":"00AS","name":"Hillingdon","partic_per":21.5,"pop_2001":243006},"geometry":{"type":"Point","coordinates":[-0.44825863836545365,51.53886608040179]},"id":2},{"type":"Feature","properties":{"ons_label":"00AR","name":"Havering","partic_per":17.9,"pop_2001":224262},"geometry":{"type":"Point","coordinates":[0.2299440603299763,51.55647075081532]},"id":3},{"type":"Feature","properties":{"ons_label":"00AX","name":"Kingston upon Thames","partic_per":24.4,"pop_2001":147271},"geometry":{"type":"Point","coordinates":[-0.2886017173717419,51.3899529526889]},"id":4},{"type":"Feature","properties":{"ons_label":"00BF","name":"Sutton","partic_per":19.3,"pop_2001":179767},"geometry":{"type":"Point","coordinates":[-0.17909686532748878,51.355680093256886]},"id":5},{"type":"Feature","properties":{"ons_label":"00AT","name":"Hounslow","partic_per":16.9,"pop_2001":212352},"geometry":{"type":"Point","coordinates":[-0.3601321754937333,51.46628092776318]},"id":6},{"type":"Feature","properties":{"ons_label":"00BA","name":"Merton","partic_per":20.7,"pop_2001":187919},"geometry":{"type":"Point","coordinates":[-0.1879709551218144,51.407766355704396]},"id":7},{"type":"Feature","properties":{"ons_label":"00BJ","name":"Wandsworth","partic_per":26,"pop_2001":260379},"geometry":{"type":"Point","coordinates":[-0.180697470551229,51.45088097165937]},"id":8},{"type":"Feature","properties":{"ons_label":"00AH","name":"Croydon","partic_per":17.6,"pop_2001":330584},"geometry":{"type":"Point","coordinates":[-0.0898299806687409,51.34959279944752]},"id":9},{"type":"Feature","properties":{"ons_label":"00AY","name":"Lambeth","partic_per":23,"pop_2001":266170},"geometry":{"type":"Point","coordinates":[-0.11637746939856876,51.46002577362205]},"id":10},{"type":"Feature","properties":{"ons_label":"00BE","name":"Southwark","partic_per":21,"pop_2001":244867},"geometry":{"type":"Point","coordinates":[-0.07500349281940165,51.472255668356794]},"id":11},{"type":"Feature","properties":{"ons_label":"00AZ","name":"Lewisham","partic_per":17.4,"pop_2001":248917},"geometry":{"type":"Point","coordinates":[-0.009630819855529693,51.449580639802925]},"id":12},{"type":"Feature","properties":{"ons_label":"00AL","name":"Greenwich","partic_per":21.5,"pop_2001":214402},"geometry":{"type":"Point","coordinates":[0.04161715713932249,51.471169623531665]},"id":13},{"type":"Feature","properties":{"ons_label":"00AJ","name":"Ealing","partic_per":18.8,"pop_2001":300943},"geometry":{"type":"Point","coordinates":[-0.3182096389116107,51.52089417816484]},"id":14},{"type":"Feature","properties":{"ons_label":"00AN","name":"Hammersmith and Fulham","partic_per":28.4,"pop_2001":165238},"geometry":{"type":"Point","coordinates":[-0.22425276696481533,51.496099927008785]},"id":15},{"type":"Feature","properties":{"ons_label":"00AE","name":"Brent","partic_per":18.3,"pop_2001":263466},"geometry":{"type":"Point","coordinates":[-0.2689514436474709,51.55418094454392]},"id":16},{"type":"Feature","properties":{"ons_label":"00AQ","name":"Harrow","partic_per":14.8,"pop_2001":206822},"geometry":{"type":"Point","coordinates":[-0.33345987613527206,51.59245920560716]},"id":17},{"type":"Feature","properties":{"ons_label":"00AC","name":"Barnet","partic_per":20.3,"pop_2001":314565},"geometry":{"type":"Point","coordinates":[-0.2039057062661384,51.619522821741604]},"id":18},{"type":"Feature","properties":{"ons_label":"00AU","name":"Islington","partic_per":20.3,"pop_2001":175789},"geometry":{"type":"Point","coordinates":[-0.10105863094923274,51.54322085266019]},"id":19},{"type":"Feature","properties":{"ons_label":"00AM","name":"Hackney","partic_per":17.6,"pop_2001":202825},"geometry":{"type":"Point","coordinates":[-0.06753190647498233,51.545617043803404]},"id":20},{"type":"Feature","properties":{"ons_label":"00BB","name":"Newham","partic_per":13.1,"pop_2001":243884},"geometry":{"type":"Point","coordinates":[0.034944891947218046,51.52982828242174]},"id":21},{"type":"Feature","properties":{"ons_label":"00AB","name":"Barking and Dagenham","partic_per":16.5,"pop_2001":163944},"geometry":{"type":"Point","coordinates":[0.13095872086320992,51.5521262972293]},"id":22},{"type":"Feature","properties":{"ons_label":"00AP","name":"Haringey","partic_per":20.8,"pop_2001":216505},"geometry":{"type":"Point","coordinates":[-0.12241532852306568,51.5880883120297]},"id":23},{"type":"Feature","properties":{"ons_label":"00AK","name":"Enfield","partic_per":17.5,"pop_2001":273565},"geometry":{"type":"Point","coordinates":[-0.10456705402206196,51.649178749795766]},"id":24},{"type":"Feature","properties":{"ons_label":"00BH","name":"Waltham Forest","partic_per":17.9,"pop_2001":218335},"geometry":{"type":"Point","coordinates":[-0.0038182294599809546,51.59848829134904]},"id":25},{"type":"Feature","properties":{"ons_label":"00BC","name":"Redbridge","partic_per":19.4,"pop_2001":238623},"geometry":{"type":"Point","coordinates":[0.07871958802068593,51.58365617542083]},"id":26},{"type":"Feature","properties":{"ons_label":"00AD","name":"Bexley","partic_per":16.3,"pop_2001":218301},"geometry":{"type":"Point","coordinates":[0.14180927311244287,51.4562489780621]},"id":27},{"type":"Feature","properties":{"ons_label":"00AW","name":"Kensington and Chelsea","partic_per":27.8,"pop_2001":158921},"geometry":{"type":"Point","coordinates":[-0.18808590562601823,51.502457108646674]},"id":28},{"type":"Feature","properties":{"ons_label":"00BK","name":"Westminster","partic_per":23.5,"pop_2001":181284},"geometry":{"type":"Point","coordinates":[-0.16287940396512035,51.515012367835304]},"id":29},{"type":"Feature","properties":{"ons_label":"00AG","name":"Camden","partic_per":26.8,"pop_2001":198022},"geometry":{"type":"Point","coordinates":[-0.150424200869884,51.538615462403456]},"id":30},{"type":"Feature","properties":{"ons_label":"00BG","name":"Tower Hamlets","partic_per":19.1,"pop_2001":196083},"geometry":{"type":"Point","coordinates":[-0.02823090106567925,51.51367704447096]},"id":31},{"type":"Feature","properties":{"ons_label":"00AA","name":"City of London","partic_per":9.1,"pop_2001":7181},"geometry":{"type":"Point","coordinates":[-0.0947771316472352,51.51486359098294]},"id":32}]